{"version": 0.6, "generator": "Overpass API 0.7.62.8 e802775f", "osm3s": {"timestamp_osm_base": "2025-11-28T17:59:13Z", "copyright": "The data included in this document is from www.openstreetmap.org. The data is made available under ODbL."}, "elements": [{"type": "node", "id": 1800523285, "lat": 53.4865614, "lon": -2.2837187}, {"type": "node", "id": 1800523286, "lat": 53.4869316, "lon": -2.2834129}, {"type": "node", "id": 1800523290, "lat": 53.4867178, "lon": -2.2832734}, {"type": "node", "id": 1800523296, "lat": 53.4865693, "lon": -2.2837455}, {"type": "node", "id": 1800523304, "lat": 53.4865039, "lon": -2.2837777}, {"type": "node", "id": 1800523308, "lat": 53.4864129, "lon": -2.2837214}, {"type": "node", "id": 1800523310, "lat": 53.4863858, "lon": -2.2836114}, {"type": "node", "id": 1800523329, "lat": 53.4864394, "lon": -2.2834792}, {"type": "node", "id": 1800523343, "lat": 53.4864305, "lon": -2.2837535}, {"type": "node", "id": 1800523347, "lat": 53.4868001, "lon": -2.2835301}, {"type": "node", "id": 1800523352, "lat": 53.4867944, "lon": -2.2835148}, {"type": "node", "id": 1800523353, "lat": 53.4864608, "lon": -2.2837696}, {"type": "node", "id": 1800523355, "lat": 53.4864129, "lon": -2.2835148}, {"type": "node", "id": 1800523356, "lat": 53.486531, "lon": -2.2837777}, {"type": "node", "id": 1800523358, "lat": 53.4863906, "lon": -2.2836731}, {"type": "node", "id": 1800523371, "lat": 53.4867075, "lon": -2.2832485}, {"type": "node", "id": 1800523380, "lat": 53.4863954, "lon": -2.2835551}, {"type": "node", "id": 1800523386, "lat": 53.4868576, "lon": -2.2831573}, {"type": "node", "id": 1977783466, "lat": 53.4540859, "lon": -2.2248578}, {"type": "node", "id": 1977783483, "lat": 53.4539366, "lon": -2.224383}, {"type": "node", "id": 1977783488, "lat": 53.4541763, "lon": -2.2246742}, {"type": "node", "id": 1977783493, "lat": 53.4538877, "lon": -2.2248723}, {"type": "node", "id": 1977783495, "lat": 53.4540742, "lon": -2.2249509}, {"type": "node", "id": 1977783508, "lat": 53.4541551, "lon": -2.2248843}, {"type": "node", "id": 1977783515, "lat": 53.4539208, "lon": -2.2246776}, {"type": "node", "id": 1977783521, "lat": 53.4538505, "lon": -2.2245939}, {"type": "node", "id": 2779152152, "lat": 53.4603197, "lon": -2.2521506}, {"type": "node", "id": 2779152155, "lat": 53.4604286, "lon": -2.2521765}, {"type": "node", "id": 2779152156, "lat": 53.4604314, "lon": -2.2521345}, {"type": "node", "id": 2779152159, "lat": 53.4605053, "lon": -2.2521494}, {"type": "node", "id": 2779152162, "lat": 53.4605231, "lon": -2.2519416}, {"type": "node", "id": 2779152165, "lat": 53.4604493, "lon": -2.2519283}, {"type": "node", "id": 2779152168, "lat": 53.4604671, "lon": -2.2517052}, {"type": "node", "id": 2779152171, "lat": 53.4603305, "lon": -2.2516717}, {"type": "node", "id": 2779152174, "lat": 53.460324, "lon": -2.2517342}, {"type": "node", "id": 2779152177, "lat": 53.4603435, "lon": -2.2517407}, {"type": "node", "id": 2779152180, "lat": 53.4603297, "lon": -2.2518984}, {"type": "node", "id": 2779152183, "lat": 53.460306, "lon": -2.2518902}, {"type": "node", "id": 2779152186, "lat": 53.4602851, "lon": -2.252088}, {"type": "node", "id": 3170302545, "lat": 53.4525546, "lon": -2.079025, "tags": {"entrance": "main"}}, {"type": "node", "id": 3170302546, "lat": 53.4525401, "lon": -2.0786253}, {"type": "node", "id": 3170302547, "lat": 53.4521112, "lon": -2.0786693}, {"type": "node", "id": 3170302548, "lat": 53.4521258, "lon": -2.079069}, {"type": "node", "id": 3741088589, "lat": 53.4095314, "lon": -2.1588105, "tags": {"addr:city": "Stockport", "addr:housenumber": "37", "addr:postcode": "SK1 1DH", "addr:street": "St. Petersgate", "name": "GI Group", "office": "employment_agency", "source": "survey"}}, {"type": "node", "id": 4566862092, "lat": 53.261451, "lon": -2.1279729, "tags": {"brand": "Jobcentre Plus", "brand:wikidata": "Q6206793", "name": "Jobcentre Plus", "name:en": "Jobcentre Plus", "office": "employment_agency"}}, {"type": "node", "id": 4950567193, "lat": 53.4431786, "lon": -2.2788248, "tags": {"addr:city": "Manchester", "addr:country": "GB", "addr:housename": "Graeme House", "addr:housenumber": "484", "addr:postcode": "M21 9BU", "addr:street": "Wilbraham Road", "brand": "Jobcentre Plus", "brand:wikidata": "Q6206793", "brand:wikipedia": "en:Jobcentre Plus", "name": "Jobcentre Plus", "office": "employment_agency"}}, {"type": "node", "id": 5709815273, "lat": 53.4081409, "lon": -2.1590577, "tags": {"addr:city": "Stockport", "addr:housename": "Heron House", "addr:postcode": "SK1 3BE", "addr:street": "Wellington Street", "brand": "Jobcentre Plus", "brand:wikidata": "Q6206793", "brand:wikipedia": "en:Jobcentre Plus", "name": "Jobcentre Plus", "office": "employment_agency"}}, {"type": "node", "id": 6169478757, "lat": 53.4603104, "lon": -2.2521371}, {"type": "node", "id": 6169478758, "lat": 53.4602925, "lon": -2.2521028}, {"type": "node", "id": 6169478759, "lat": 53.4603011, "lon": -2.2521515}, {"type": "node", "id": 6169478760, "lat": 53.4602842, "lon": -2.2521234}, {"type": "node", "id": 6358776682, "lat": 53.4833944, "lon": -2.2343163, "tags": {"addr:city": "Manchester", "addr:country": "GB", "addr:housenumber": "54", "addr:postcode": "M4 1LE", "addr:street": "Oldham Street", "name": "Careermakers Recruitment", "office": "employment_agency"}}, {"type": "node", "id": 6360996529, "lat": 53.4819915, "lon": -2.232949, "tags": {"addr:city": "Manchester", "addr:country": "GB", "addr:housenumber": "49a", "addr:postcode": "M1 1FT", "addr:street": "Newton Street", "name": "Contract Options", "office": "employment_agency"}}, {"type": "node", "id": 6868128024, "lat": 53.4257516, "lon": -2.2358283}, {"type": "node", "id": 6868128025, "lat": 53.4257722, "lon": -2.2358081}, {"type": "node", "id": 6868128026, "lat": 53.4257799, "lon": -2.2358326}, {"type": "node", "id": 6868128027, "lat": 53.4259499, "lon": -2.2356683}, {"type": "node", "id": 6868128028, "lat": 53.4259568, "lon": -2.2356914}, {"type": "node", "id": 6868128029, "lat": 53.4260109, "lon": -2.235641}, {"type": "node", "id": 6868128030, "lat": 53.4260023, "lon": -2.2356121}, {"type": "node", "id": 6868128031, "lat": 53.4262161, "lon": -2.2354205}, {"type": "node", "id": 6868128032, "lat": 53.4261388, "lon": -2.2351943}, {"type": "node", "id": 6868128033, "lat": 53.4257061, "lon": -2.2355963}, {"type": "node", "id": 6868128034, "lat": 53.4257164, "lon": -2.2356266}, {"type": "node", "id": 6868128035, "lat": 53.4256932, "lon": -2.2356467}, {"type": "node", "id": 8232348115, "lat": 53.4418472, "lon": -2.2125142, "tags": {"check_date": "2025-05-25", "name": "Homecare", "office": "employment_agency"}}, {"type": "node", "id": 9036504962, "lat": 53.4039044, "lon": -2.1604916, "tags": {"addr:city": "Stockport", "addr:housenumber": "17", "addr:postcode": "SK3 8AB", "addr:street": "Greek Street", "name": "The Best Connection Employment Group", "office": "employment_agency"}}, {"type": "node", "id": 9042646174, "lat": 53.4072077, "lon": -2.1602202, "tags": {"addr:city": "Stockport", "addr:housenumber": "48-52", "addr:postcode": "SK1 3SS", "addr:street": "Wellington Road South", "name": "Education and Careers Advice Service", "office": "employment_agency", "operator": "Stockport Metropolitan Borough Council", "website": "https://www.stockport.gov.uk/careers-information-advice-and-guidance"}}, {"type": "node", "id": 9042646177, "lat": 53.4069696, "lon": -2.1606649, "tags": {"addr:city": "Stockport", "addr:housenumber": "14", "addr:postcode": "SK1 3TA", "addr:street": "Grand Central Square", "name": "Apprenticeships Store", "office": "employment_agency"}}, {"type": "node", "id": 9054260826, "lat": 53.4084262, "lon": -2.1581942, "tags": {"addr:city": "Stockport", "addr:housename": "Victoria House", "addr:postcode": "SK1 3AD", "addr:street": "Wellington Street", "name": "Think Employment Stockport", "office": "employment_agency"}}, {"type": "node", "id": 9057085380, "lat": 53.4094299, "lon": -2.1589653, "tags": {"addr:city": "Stockport", "addr:housenumber": "45A", "addr:postcode": "SK1 1DH", "addr:street": "St. Petersgate", "name": "Creative Resource", "office": "employment_agency"}}, {"type": "node", "id": 9057359528, "lat": 53.4097797, "lon": -2.1586978, "tags": {"addr:city": "Stockport", "addr:housenumber": "44", "addr:postcode": "SK1 1HL", "addr:street": "St. Petersgate", "brand": "Adecco", "brand:wikidata": "Q353494", "brand:wikipedia": "en:The Adecco Group", "name": "Adecco", "office": "employment_agency"}}, {"type": "node", "id": 9059604227, "lat": 53.4102474, "lon": -2.1580823, "tags": {"addr:city": "Stockport", "addr:housenumber": "24", "addr:postcode": "SK1 1HD", "addr:street": "St. Petersgate", "name": "Jobwise", "office": "employment_agency"}}, {"type": "node", "id": 9059604270, "lat": 53.4103198, "lon": -2.1579874, "tags": {"addr:city": "Stockport", "addr:housenumber": "20", "addr:postcode": "SK1 1HD", "addr:street": "St. Petersgate", "name": "Resolve Personnel", "office": "employment_agency"}}, {"type": "node", "id": 9060371439, "lat": 53.4723437, "lon": -2.1738571, "tags": {"addr:street": "Cornwall Street", "name": "Openshaw Jobcentre", "office": "employment_agency", "opening_hours": "Mo-Fr 08:00-18:15"}}, {"type": "node", "id": 9607494163, "lat": 53.4804758, "lon": -2.2405775, "tags": {"addr:city": "Manchester", "addr:housenumber": "20", "addr:postcode": "M2 3BB", "addr:street": "York Street", "name": "Forrest Recruitment", "office": "employment_agency"}}, {"type": "node", "id": 9629032715, "lat": 53.4921289, "lon": -2.2407399, "tags": {"addr:city": "Manchester", "addr:housenumber": "67", "addr:postcode": "M4 4ES", "addr:street": "Cheetham Hill Road", "name": "Pertemps", "office": "employment_agency"}}, {"type": "node", "id": 9661320494, "lat": 53.4538581, "lon": -2.224574}, {"type": "node", "id": 9898129564, "lat": 53.4761617, "lon": -2.2313699, "tags": {"addr:city": "Manchester", "addr:housename": "Bainbridge House", "addr:housenumber": "86-90", "addr:postcode": "M1 2PW", "addr:street": "London Road", "check_date": "2024-11-08", "name": "The Best Connection", "office": "employment_agency"}}, {"type": "node", "id": 11435306174, "lat": 53.2584034, "lon": -2.1259554, "tags": {"name": "Fedcap", "office": "employment_agency"}}, {"type": "node", "id": 11506231585, "lat": 53.4314941, "lon": -2.3189389, "tags": {"addr:housenumber": "187", "addr:street": "Cross Street", "name": "VGC Group", "office": "employment_agency", "website": "https://vgcgroup.co.uk/"}}, {"type": "node", "id": 11818249561, "lat": 53.4729842, "lon": -2.250207, "tags": {"addr:city": "Manchester", "addr:housenumber": "7", "addr:postcode": "M15 4PY", "addr:street": "Jordan Street", "name": "CAST UK", "office": "employment_agency", "source": "aerial imagery;code-point_open"}}, {"type": "node", "id": 11833814444, "lat": 53.4620793, "lon": -2.1756098, "tags": {"addr:city": "Manchester", "addr:housename": "Gorton Hub", "addr:housenumber": "27", "addr:postcode": "M18 8HE", "addr:street": "Garratt Way", "brand": "Jobcentre Plus", "brand:wikidata": "Q6206793", "name": "Jobcentre Plus", "office": "employment_agency"}}, {"type": "node", "id": 12656826618, "lat": 53.5024155, "lon": -2.186903, "tags": {"addr:city": "Manchester", "addr:housename": "Jobcentre Plus", "addr:housenumber": "1009", "addr:postcode": "M40 2EP", "addr:street": "Oldham Road", "brand": "Jobcentre Plus", "brand:wikidata": "Q6206793", "name": "Jobcentre Plus", "office": "employment_agency"}}, {"type": "node", "id": 12732147988, "lat": 53.4435547, "lon": -1.9518724, "tags": {"addr:city": "Glossop", "addr:postcode": "SK13 8BH", "addr:street": "High Street West", "name": "KPJ", "office": "employment_agency"}}, {"type": "way", "id": 168868284, "nodes": [1800523286, 1800523347, 1800523352, 1800523285, 1800523296, 1800523356, 1800523304, 1800523353, 1800523343, 1800523308, 1800523358, 1800523310, 1800523380, 1800523355, 1800523329, 1800523371, 1800523290, 1800523386, 1800523286], "tags": {"addr:city": "Salford", "addr:housenumber": "2", "addr:postcode": "M6 5PL", "addr:street": "Paddington Close", "brand": "Jobcentre Plus", "brand:wikidata": "Q6206793", "brand:wikipedia": "en:Jobcentre Plus", "building": "yes", "name": "Jobcentre Plus", "office": "employment_agency", "website": "https://www.gov.uk/contact-jobcentre-plus"}}, {"type": "way", "id": 187023977, "nodes": [1977783466, 1977783508, 1977783488, 1977783483, 9661320494, 1977783521, 1977783515, 1977783493, 1977783495, 1977783466], "tags": {"addr:city": "Manchester", "addr:housenumber": "96", "addr:postcode": "M14 5BJ", "addr:street": "Wilmslow Road", "brand": "Jobcentre Plus", "brand:wikidata": "Q6206793", "brand:wikipedia": "en:Jobcentre Plus", "building": "yes", "name": "Jobcentre Plus", "office": "employment_agency", "ref:GB:uprn": "10023053083"}}, {"type": "way", "id": 273025761, "nodes": [2779152152, 2779152155, 2779152156, 2779152159, 2779152162, 2779152165, 2779152168, 2779152171, 2779152174, 2779152177, 2779152180, 2779152183, 2779152186, 6169478758, 6169478760, 6169478759, 6169478757, 2779152152], "tags": {"addr:city": "Manchester", "addr:housenumber": "91", "addr:postcode": "M15 5JB", "addr:street": "Moss Lane East", "brand": "Jobcentre Plus", "brand:wikidata": "Q6206793", "brand:wikipedia": "en:Jobcentre Plus", "building": "yes", "name": "Jobcentre Plus", "office": "employment_agency"}}, {"type": "way", "id": 311395223, "nodes": [3170302545, 3170302546, 3170302547, 3170302548, 3170302545], "tags": {"brand": "Jobcentre Plus", "brand:wikidata": "Q6206793", "building": "yes", "name": "Jobcentre Plus", "office": "employment_agency"}}, {"type": "way", "id": 733389336, "nodes": [6868128024, 6868128025, 6868128026, 6868128027, 6868128028, 6868128029, 6868128030, 6868128031, 6868128032, 6868128033, 6868128034, 6868128035, 6868128024], "tags": {"addr:city": "Manchester", "addr:housename": "Danesmoor Court", "addr:housenumber": "95-97", "addr:postcode": "M20 3JQ", "addr:street": "Palatine Road", "brand": "Jobcentre Plus", "brand:wikidata": "Q6206793", "brand:wikipedia": "en:Jobcentre Plus", "building": "yes", "name": "Jobcentre Plus", "office": "employment_agency", "phone": "+44 800 169 0190", "ref:GB:uprn": "77107762", "website": "https://hsm.manchester.gov.uk/kb5/manchester/directory/service.page?id=7C6HCAVLAlE"}}]}