{"version": 0.6, "generator": "Overpass API 0.7.62.8 e802775f", "osm3s": {"timestamp_osm_base": "2025-11-28T17:54:11Z", "copyright": "The data included in this document is from www.openstreetmap.org. The data is made available under ODbL."}, "elements": [{"type": "node", "id": 338786480, "lat": 53.3960616, "lon": -2.3519158, "tags": {"addr:city": "Altrincham", "brand": "Jobcentre Plus", "brand:wikidata": "Q6206793", "name": "Jobcentre Plus", "office": "employment_agency"}}, {"type": "node", "id": 380239771, "lat": 53.487111, "lon": -2.6369163}, {"type": "node", "id": 380239772, "lat": 53.4870469, "lon": -2.6367095}, {"type": "node", "id": 380239773, "lat": 53.4870787, "lon": -2.6366816}, {"type": "node", "id": 380239774, "lat": 53.4870047, "lon": -2.6364428}, {"type": "node", "id": 380239775, "lat": 53.4871105, "lon": -2.6363502}, {"type": "node", "id": 380239776, "lat": 53.4871655, "lon": -2.6365278}, {"type": "node", "id": 380239778, "lat": 53.4872067, "lon": -2.6364917}, {"type": "node", "id": 380239781, "lat": 53.4872898, "lon": -2.6367598}, {"type": "node", "id": 929104188, "lat": 53.5123503, "lon": -2.3372912}, {"type": "node", "id": 1606829522, "lat": 53.5774701, "lon": -2.4325506}, {"type": "node", "id": 1606829530, "lat": 53.5773864, "lon": -2.4320949}, {"type": "node", "id": 1606829602, "lat": 53.577206, "lon": -2.4323647}, {"type": "node", "id": 1606829614, "lat": 53.5775303, "lon": -2.432308}, {"type": "node", "id": 1606829630, "lat": 53.5772898, "lon": -2.4320268}, {"type": "node", "id": 1606829679, "lat": 53.5773628, "lon": -2.4321901}, {"type": "node", "id": 1781892230, "lat": 53.5479678, "lon": -2.196476}, {"type": "node", "id": 1781892254, "lat": 53.5481272, "lon": -2.1964023}, {"type": "node", "id": 1781892268, "lat": 53.5481814, "lon": -2.1957911}, {"type": "node", "id": 1781892278, "lat": 53.5482464, "lon": -2.1967221}, {"type": "node", "id": 1781892281, "lat": 53.5482612, "lon": -2.1966748}, {"type": "node", "id": 1781892287, "lat": 53.54828, "lon": -2.1966914}, {"type": "node", "id": 1781892294, "lat": 53.5482883, "lon": -2.1958855}, {"type": "node", "id": 1781892296, "lat": 53.5482905, "lon": -2.1965894}, {"type": "node", "id": 1781892298, "lat": 53.548301, "lon": -2.1965558}, {"type": "node", "id": 1781892308, "lat": 53.5483072, "lon": -2.1966042}, {"type": "node", "id": 1800523285, "lat": 53.4865614, "lon": -2.2837187}, {"type": "node", "id": 1800523286, "lat": 53.4869316, "lon": -2.2834129}, {"type": "node", "id": 1800523290, "lat": 53.4867178, "lon": -2.2832734}, {"type": "node", "id": 1800523296, "lat": 53.4865693, "lon": -2.2837455}, {"type": "node", "id": 1800523304, "lat": 53.4865039, "lon": -2.2837777}, {"type": "node", "id": 1800523308, "lat": 53.4864129, "lon": -2.2837214}, {"type": "node", "id": 1800523310, "lat": 53.4863858, "lon": -2.2836114}, {"type": "node", "id": 1800523329, "lat": 53.4864394, "lon": -2.2834792}, {"type": "node", "id": 1800523343, "lat": 53.4864305, "lon": -2.2837535}, {"type": "node", "id": 1800523347, "lat": 53.4868001, "lon": -2.2835301}, {"type": "node", "id": 1800523352, "lat": 53.4867944, "lon": -2.2835148}, {"type": "node", "id": 1800523353, "lat": 53.4864608, "lon": -2.2837696}, {"type": "node", "id": 1800523355, "lat": 53.4864129, "lon": -2.2835148}, {"type": "node", "id": 1800523356, "lat": 53.486531, "lon": -2.2837777}, {"type": "node", "id": 1800523358, "lat": 53.4863906, "lon": -2.2836731}, {"type": "node", "id": 1800523371, "lat": 53.4867075, "lon": -2.2832485}, {"type": "node", "id": 1800523380, "lat": 53.4863954, "lon": -2.2835551}, {"type": "node", "id": 1800523386, "lat": 53.4868576, "lon": -2.2831573}, {"type": "node", "id": 1977783466, "lat": 53.4540859, "lon": -2.2248578}, {"type": "node", "id": 1977783483, "lat": 53.4539366, "lon": -2.224383}, {"type": "node", "id": 1977783488, "lat": 53.4541763, "lon": -2.2246742}, {"type": "node", "id": 1977783493, "lat": 53.4538877, "lon": -2.2248723}, {"type": "node", "id": 1977783495, "lat": 53.4540742, "lon": -2.2249509}, {"type": "node", "id": 1977783508, "lat": 53.4541551, "lon": -2.2248843}, {"type": "node", "id": 1977783515, "lat": 53.4539208, "lon": -2.2246776}, {"type": "node", "id": 1977783521, "lat": 53.4538505, "lon": -2.2245939}, {"type": "node", "id": 2314601087, "lat": 53.5121127, "lon": -2.337502}, {"type": "node", "id": 2314601088, "lat": 53.5119944, "lon": -2.3371246}, {"type": "node", "id": 2314601089, "lat": 53.5122319, "lon": -2.3369139}, {"type": "node", "id": 2779152152, "lat": 53.4603197, "lon": -2.2521506}, {"type": "node", "id": 2779152155, "lat": 53.4604286, "lon": -2.2521765}, {"type": "node", "id": 2779152156, "lat": 53.4604314, "lon": -2.2521345}, {"type": "node", "id": 2779152159, "lat": 53.4605053, "lon": -2.2521494}, {"type": "node", "id": 2779152162, "lat": 53.4605231, "lon": -2.2519416}, {"type": "node", "id": 2779152165, "lat": 53.4604493, "lon": -2.2519283}, {"type": "node", "id": 2779152168, "lat": 53.4604671, "lon": -2.2517052}, {"type": "node", "id": 2779152171, "lat": 53.4603305, "lon": -2.2516717}, {"type": "node", "id": 2779152174, "lat": 53.460324, "lon": -2.2517342}, {"type": "node", "id": 2779152177, "lat": 53.4603435, "lon": -2.2517407}, {"type": "node", "id": 2779152180, "lat": 53.4603297, "lon": -2.2518984}, {"type": "node", "id": 2779152183, "lat": 53.460306, "lon": -2.2518902}, {"type": "node", "id": 2779152186, "lat": 53.4602851, "lon": -2.252088}, {"type": "node", "id": 2873705245, "lat": 53.6163843, "lon": -2.1571322}, {"type": "node", "id": 2873705246, "lat": 53.6164786, "lon": -2.1564902}, {"type": "node", "id": 2873705247, "lat": 53.6163521, "lon": -2.1564374}, {"type": "node", "id": 2873705248, "lat": 53.616256, "lon": -2.1570787}, {"type": "node", "id": 3170302545, "lat": 53.4525546, "lon": -2.079025, "tags": {"entrance": "main"}}, {"type": "node", "id": 3170302546, "lat": 53.4525401, "lon": -2.0786253}, {"type": "node", "id": 3170302547, "lat": 53.4521112, "lon": -2.0786693}, {"type": "node", "id": 3170302548, "lat": 53.4521258, "lon": -2.079069}, {"type": "node", "id": 3741088589, "lat": 53.4095314, "lon": -2.1588105, "tags": {"addr:city": "Stockport", "addr:housenumber": "37", "addr:postcode": "SK1 1DH", "addr:street": "St. Petersgate", "name": "GI Group", "office": "employment_agency", "source": "survey"}}, {"type": "node", "id": 4730679638, "lat": 53.5134032, "lon": -2.340698, "tags": {"name": "Start", "office": "employment_agency"}}, {"type": "node", "id": 4950567193, "lat": 53.4431786, "lon": -2.2788248, "tags": {"addr:city": "Manchester", "addr:country": "GB", "addr:housename": "Graeme House", "addr:housenumber": "484", "addr:postcode": "M21 9BU", "addr:street": "Wilbraham Road", "brand": "Jobcentre Plus", "brand:wikidata": "Q6206793", "brand:wikipedia": "en:Jobcentre Plus", "name": "Jobcentre Plus", "office": "employment_agency"}}, {"type": "node", "id": 4962852354, "lat": 53.5788061, "lon": -2.4265882, "tags": {"name": "The Best Connection", "office": "employment_agency"}}, {"type": "node", "id": 4968222879, "lat": 53.5933749, "lon": -2.297423, "tags": {"name": "Recruitment Solutions", "office": "employment_agency", "wheelchair": "limited"}}, {"type": "node", "id": 4968223061, "lat": 53.5916122, "lon": -2.299833}, {"type": "node", "id": 4968223062, "lat": 53.5918576, "lon": -2.299644}, {"type": "node", "id": 4968223063, "lat": 53.5917997, "lon": -2.2994306}, {"type": "node", "id": 4968223064, "lat": 53.5915543, "lon": -2.2996196}, {"type": "node", "id": 5001755684, "lat": 53.4673771, "lon": -2.3512307, "tags": {"description": "Trafford skills shop", "name": "Skills shop", "office": "employment_agency", "opening_hours": "Mo-Fr 10:00-18:00; Sa 10:00-16:00"}}, {"type": "node", "id": 5234865423, "lat": 53.5816699, "lon": -2.4283296, "tags": {"name": "C & H Recruitment Agency", "office": "employment_agency"}}, {"type": "node", "id": 5234865446, "lat": 53.5803669, "lon": -2.4283997, "tags": {"name": "Jobwise", "office": "employment_agency"}}, {"type": "node", "id": 5235125792, "lat": 53.5775195, "lon": -2.4323003}, {"type": "node", "id": 5458797525, "lat": 53.6002282, "lon": -2.4326893}, {"type": "node", "id": 5458797526, "lat": 53.6002237, "lon": -2.4325468}, {"type": "node", "id": 5458797527, "lat": 53.6002992, "lon": -2.4326835}, {"type": "node", "id": 5458797528, "lat": 53.6002948, "lon": -2.4325411}, {"type": "node", "id": 5622961347, "lat": 53.537817, "lon": -2.370531}, {"type": "node", "id": 5622961348, "lat": 53.5379407, "lon": -2.3704354}, {"type": "node", "id": 5622961349, "lat": 53.5379062, "lon": -2.3703084}, {"type": "node", "id": 5622961350, "lat": 53.5378138, "lon": -2.3703796}, {"type": "node", "id": 5622961351, "lat": 53.5378277, "lon": -2.3704307}, {"type": "node", "id": 5622961352, "lat": 53.5377962, "lon": -2.370455}, {"type": "node", "id": 5622961353, "lat": 53.5378249, "lon": -2.3703705}, {"type": "node", "id": 5709815273, "lat": 53.4081409, "lon": -2.1590577, "tags": {"addr:city": "Stockport", "addr:housename": "Heron House", "addr:postcode": "SK1 3BE", "addr:street": "Wellington Street", "brand": "Jobcentre Plus", "brand:wikidata": "Q6206793", "brand:wikipedia": "en:Jobcentre Plus", "name": "Jobcentre Plus", "office": "employment_agency"}}, {"type": "node", "id": 6115589601, "lat": 53.5330346, "lon": -2.2823674}, {"type": "node", "id": 6115589602, "lat": 53.5331456, "lon": -2.2822268}, {"type": "node", "id": 6115589603, "lat": 53.5329914, "lon": -2.2818825}, {"type": "node", "id": 6115589604, "lat": 53.5328805, "lon": -2.2820231}, {"type": "node", "id": 6169478757, "lat": 53.4603104, "lon": -2.2521371}, {"type": "node", "id": 6169478758, "lat": 53.4602925, "lon": -2.2521028}, {"type": "node", "id": 6169478759, "lat": 53.4603011, "lon": -2.2521515}, {"type": "node", "id": 6169478760, "lat": 53.4602842, "lon": -2.2521234}, {"type": "node", "id": 6358776682, "lat": 53.4833944, "lon": -2.2343163, "tags": {"addr:city": "Manchester", "addr:country": "GB", "addr:housenumber": "54", "addr:postcode": "M4 1LE", "addr:street": "Oldham Street", "name": "Careermakers Recruitment", "office": "employment_agency"}}, {"type": "node", "id": 6360996529, "lat": 53.4819915, "lon": -2.232949, "tags": {"addr:city": "Manchester", "addr:country": "GB", "addr:housenumber": "49a", "addr:postcode": "M1 1FT", "addr:street": "Newton Street", "name": "Contract Options", "office": "employment_agency"}}, {"type": "node", "id": 6524086792, "lat": 53.554818, "lon": -2.5099522}, {"type": "node", "id": 6524086793, "lat": 53.5549014, "lon": -2.5098889}, {"type": "node", "id": 6524086797, "lat": 53.5548187, "lon": -2.5098209}, {"type": "node", "id": 6524086798, "lat": 53.5547976, "lon": -2.5099009}, {"type": "node", "id": 6524086799, "lat": 53.5547975, "lon": -2.5098928}, {"type": "node", "id": 6868128024, "lat": 53.4257516, "lon": -2.2358283}, {"type": "node", "id": 6868128025, "lat": 53.4257722, "lon": -2.2358081}, {"type": "node", "id": 6868128026, "lat": 53.4257799, "lon": -2.2358326}, {"type": "node", "id": 6868128027, "lat": 53.4259499, "lon": -2.2356683}, {"type": "node", "id": 6868128028, "lat": 53.4259568, "lon": -2.2356914}, {"type": "node", "id": 6868128029, "lat": 53.4260109, "lon": -2.235641}, {"type": "node", "id": 6868128030, "lat": 53.4260023, "lon": -2.2356121}, {"type": "node", "id": 6868128031, "lat": 53.4262161, "lon": -2.2354205}, {"type": "node", "id": 6868128032, "lat": 53.4261388, "lon": -2.2351943}, {"type": "node", "id": 6868128033, "lat": 53.4257061, "lon": -2.2355963}, {"type": "node", "id": 6868128034, "lat": 53.4257164, "lon": -2.2356266}, {"type": "node", "id": 6868128035, "lat": 53.4256932, "lon": -2.2356467}, {"type": "node", "id": 8168836294, "lat": 53.6163483, "lon": -2.1564495}, {"type": "node", "id": 8232348115, "lat": 53.4418472, "lon": -2.2125142, "tags": {"check_date": "2025-05-25", "name": "Homecare", "office": "employment_agency"}}, {"type": "node", "id": 8458215866, "lat": 53.5241642, "lon": -2.4003872, "tags": {"brand": "Jobcentre Plus", "brand:wikidata": "Q6206793", "brand:wikipedia": "en:Jobcentre Plus", "name": "Jobcentre Plus", "office": "employment_agency"}}, {"type": "node", "id": 8460965008, "lat": 53.5122975, "lon": -2.2427165}, {"type": "node", "id": 8460965009, "lat": 53.5122499, "lon": -2.2431343}, {"type": "node", "id": 8460965010, "lat": 53.5119855, "lon": -2.2430565}, {"type": "node", "id": 8460965011, "lat": 53.512, "lon": -2.2428403}, {"type": "node", "id": 8460965012, "lat": 53.5121415, "lon": -2.2428816}, {"type": "node", "id": 8460965013, "lat": 53.5121617, "lon": -2.2426703}, {"type": "node", "id": 8586555833, "lat": 53.5452622, "lon": -2.631074, "tags": {"addr:city": "Wigan", "addr:postcode": "WN1 1NN", "addr:street": "Library Street", "name": "Intro Recruitment", "office": "employment_agency"}}, {"type": "node", "id": 8913397251, "lat": 53.4999035, "lon": -2.5198665}, {"type": "node", "id": 8913397252, "lat": 53.4999898, "lon": -2.5192617}, {"type": "node", "id": 8913397253, "lat": 53.5000972, "lon": -2.5193051}, {"type": "node", "id": 8913397254, "lat": 53.5001028, "lon": -2.5192655}, {"type": "node", "id": 8913397255, "lat": 53.5001388, "lon": -2.51928}, {"type": "node", "id": 8913397256, "lat": 53.500135, "lon": -2.5193067}, {"type": "node", "id": 8913397257, "lat": 53.5001734, "lon": -2.5193222}, {"type": "node", "id": 8913397258, "lat": 53.5001572, "lon": -2.5194359}, {"type": "node", "id": 8913397259, "lat": 53.5000862, "lon": -2.5194073}, {"type": "node", "id": 8913397260, "lat": 53.5000143, "lon": -2.5199112}, {"type": "node", "id": 8980284712, "lat": 53.5434586, "lon": -2.6298219, "tags": {"addr:city": "Wigan", "addr:housename": "Brocol House", "addr:housenumber": "73", "addr:postcode": "WN1 1EA", "addr:street": "King Street", "brand": "Jobcentre Plus", "brand:wikidata": "Q6206793", "brand:wikipedia": "en:Jobcentre Plus", "name": "Jobcentre Plus", "office": "employment_agency"}}, {"type": "node", "id": 9036504962, "lat": 53.4039044, "lon": -2.1604916, "tags": {"addr:city": "Stockport", "addr:housenumber": "17", "addr:postcode": "SK3 8AB", "addr:street": "Greek Street", "name": "The Best Connection Employment Group", "office": "employment_agency"}}, {"type": "node", "id": 9042646174, "lat": 53.4072077, "lon": -2.1602202, "tags": {"addr:city": "Stockport", "addr:housenumber": "48-52", "addr:postcode": "SK1 3SS", "addr:street": "Wellington Road South", "name": "Education and Careers Advice Service", "office": "employment_agency", "operator": "Stockport Metropolitan Borough Council", "website": "https://www.stockport.gov.uk/careers-information-advice-and-guidance"}}, {"type": "node", "id": 9042646177, "lat": 53.4069696, "lon": -2.1606649, "tags": {"addr:city": "Stockport", "addr:housenumber": "14", "addr:postcode": "SK1 3TA", "addr:street": "Grand Central Square", "name": "Apprenticeships Store", "office": "employment_agency"}}, {"type": "node", "id": 9054260826, "lat": 53.4084262, "lon": -2.1581942, "tags": {"addr:city": "Stockport", "addr:housename": "Victoria House", "addr:postcode": "SK1 3AD", "addr:street": "Wellington Street", "name": "Think Employment Stockport", "office": "employment_agency"}}, {"type": "node", "id": 9057085380, "lat": 53.4094299, "lon": -2.1589653, "tags": {"addr:city": "Stockport", "addr:housenumber": "45A", "addr:postcode": "SK1 1DH", "addr:street": "St. Petersgate", "name": "Creative Resource", "office": "employment_agency"}}, {"type": "node", "id": 9057359528, "lat": 53.4097797, "lon": -2.1586978, "tags": {"addr:city": "Stockport", "addr:housenumber": "44", "addr:postcode": "SK1 1HL", "addr:street": "St. Petersgate", "brand": "Adecco", "brand:wikidata": "Q353494", "brand:wikipedia": "en:The Adecco Group", "name": "Adecco", "office": "employment_agency"}}, {"type": "node", "id": 9059604227, "lat": 53.4102474, "lon": -2.1580823, "tags": {"addr:city": "Stockport", "addr:housenumber": "24", "addr:postcode": "SK1 1HD", "addr:street": "St. Petersgate", "name": "Jobwise", "office": "employment_agency"}}, {"type": "node", "id": 9059604270, "lat": 53.4103198, "lon": -2.1579874, "tags": {"addr:city": "Stockport", "addr:housenumber": "20", "addr:postcode": "SK1 1HD", "addr:street": "St. Petersgate", "name": "Resolve Personnel", "office": "employment_agency"}}, {"type": "node", "id": 9060371439, "lat": 53.4723437, "lon": -2.1738571, "tags": {"addr:street": "Cornwall Street", "name": "Openshaw Jobcentre", "office": "employment_agency", "opening_hours": "Mo-Fr 08:00-18:15"}}, {"type": "node", "id": 9064591091, "lat": 53.492792, "lon": -2.6282639}, {"type": "node", "id": 9064591092, "lat": 53.4928186, "lon": -2.628203}, {"type": "node", "id": 9064591093, "lat": 53.4927196, "lon": -2.6280804}, {"type": "node", "id": 9064591094, "lat": 53.492693, "lon": -2.6281412}, {"type": "node", "id": 9428243479, "lat": 53.5767351, "lon": -2.4255283, "tags": {"name": "Clarity Homecare", "office": "employment_agency"}}, {"type": "node", "id": 9607494163, "lat": 53.4804758, "lon": -2.2405775, "tags": {"addr:city": "Manchester", "addr:housenumber": "20", "addr:postcode": "M2 3BB", "addr:street": "York Street", "name": "Forrest Recruitment", "office": "employment_agency"}}, {"type": "node", "id": 9629032715, "lat": 53.4921289, "lon": -2.2407399, "tags": {"addr:city": "Manchester", "addr:housenumber": "67", "addr:postcode": "M4 4ES", "addr:street": "Cheetham Hill Road", "name": "Pertemps", "office": "employment_agency"}}, {"type": "node", "id": 9661320494, "lat": 53.4538581, "lon": -2.224574}, {"type": "node", "id": 9898129564, "lat": 53.4761617, "lon": -2.2313699, "tags": {"addr:city": "Manchester", "addr:housename": "Bainbridge House", "addr:housenumber": "86-90", "addr:postcode": "M1 2PW", "addr:street": "London Road", "check_date": "2024-11-08", "name": "The Best Connection", "office": "employment_agency"}}, {"type": "node", "id": 10002121993, "lat": 53.5401037, "lon": -2.1169308, "tags": {"addr:city": "Oldham", "addr:housenumber": "29", "addr:postcode": "OL8 1DP", "addr:street": "King Street", "name": "Fullbridge Social Care", "office": "employment_agency"}}, {"type": "node", "id": 10015460404, "lat": 53.5402473, "lon": -2.1133394, "tags": {"addr:city": "Oldham", "addr:housename": "Tweedale House", "addr:housenumber": "75", "addr:postcode": "OL1 1LH", "addr:street": "Union Street", "brand": "Jobcentre Plus", "brand:wikidata": "Q6206793", "name": "Jobcentre Plus", "office": "employment_agency"}}, {"type": "node", "id": 10016803882, "lat": 53.5405924, "lon": -2.1132746, "tags": {"addr:city": "Oldham", "addr:postcode": "OL1 1HP", "addr:street": "Peter Street", "addr:unit": "10 Ascroft Court", "name": "The Best Connection", "office": "employment_agency"}}, {"type": "node", "id": 10025045931, "lat": 53.5408044, "lon": -2.1100084, "tags": {"addr:city": "Oldham", "addr:housenumber": "103", "addr:postcode": "OL1 1QH", "addr:street": "Union Street", "name": "First 4 Recruitment", "office": "employment_agency"}}, {"type": "node", "id": 10027911463, "lat": 53.5414678, "lon": -2.1095287, "tags": {"addr:city": "Oldham", "addr:housenumber": "25", "addr:postcode": "OL1 1RD", "addr:street": "Queen Street", "name": "Kingdom Recruitment", "office": "employment_agency"}}, {"type": "node", "id": 10039961312, "lat": 53.5411028, "lon": -2.1083469, "tags": {"addr:city": "Oldham", "addr:housenumber": "117", "addr:postcode": "OL1 1RU", "addr:street": "Union Street", "name": "Mpeople Recruitment", "office": "employment_agency"}}, {"type": "node", "id": 10042369234, "lat": 53.4266768, "lon": -2.3242741, "tags": {"addr:housenumber": "37", "addr:postcode": "M33 7FT", "addr:street": "Cross Street", "name": "PPM", "office": "employment_agency", "phone": "+44 333 241 6800", "website": "https://www.ppmrecruit.com/"}}, {"type": "node", "id": 10083466736, "lat": 53.5422824, "lon": -2.1100662, "tags": {"addr:city": "Oldham", "addr:housenumber": "37", "addr:postcode": "OL1 3RZ", "addr:street": "Yorkshire Street", "name": "Staff Oldham", "office": "employment_agency"}}, {"type": "node", "id": 10595172217, "lat": 53.5483769, "lon": -2.0889081, "tags": {"addr:city": "Oldham", "addr:housenumber": "45-47", "addr:postcode": "OL1 4EW", "addr:street": "Ripponden Road", "name": "Unicorn1Care", "office": "employment_agency"}}, {"type": "node", "id": 10779887962, "lat": 53.484037, "lon": -2.3388068, "tags": {"brand": "Jobcentre Plus", "brand:wikidata": "Q6206793", "name": "Jobcentre Plus", "office": "employment_agency"}}, {"type": "node", "id": 10795292752, "lat": 53.6197518, "lon": -2.1540596, "tags": {"addr:city": "Rochdale", "addr:housenumber": "148", "addr:postcode": "OL16 1LD", "addr:street": "Yorkshire Street", "name": "Northern Employment Services", "office": "employment_agency", "phone": "+44 1706 869444", "website": "https://northern-employment.co.uk"}}, {"type": "node", "id": 11248236043, "lat": 53.5438006, "lon": -2.1389768, "tags": {"addr:city": "Oldham", "addr:postcode": "OL9 9TU", "addr:street": "Lower Victoria Street", "addr:suburb": "Chadderton", "addr:unit": "2", "name": "Eclypse Recruitment", "office": "employment_agency"}}, {"type": "node", "id": 11506231585, "lat": 53.4314941, "lon": -2.3189389, "tags": {"addr:housenumber": "187", "addr:street": "Cross Street", "name": "VGC Group", "office": "employment_agency", "website": "https://vgcgroup.co.uk/"}}, {"type": "node", "id": 11818249561, "lat": 53.4729842, "lon": -2.250207, "tags": {"addr:city": "Manchester", "addr:housenumber": "7", "addr:postcode": "M15 4PY", "addr:street": "Jordan Street", "name": "CAST UK", "office": "employment_agency", "source": "aerial imagery;code-point_open"}}, {"type": "node", "id": 11833814444, "lat": 53.4620793, "lon": -2.1756098, "tags": {"addr:city": "Manchester", "addr:housename": "Gorton Hub", "addr:housenumber": "27", "addr:postcode": "M18 8HE", "addr:street": "Garratt Way", "brand": "Jobcentre Plus", "brand:wikidata": "Q6206793", "name": "Jobcentre Plus", "office": "employment_agency"}}, {"type": "node", "id": 12085425076, "lat": 53.5437357, "lon": -2.1334254, "tags": {"addr:city": "Oldham", "addr:parentstreet": "Neville Street", "addr:postcode": "OL9 6LD", "addr:street": "Neville Street Industrial Estate", "addr:suburb": "Chadderton", "addr:unit": "8", "name": "Piling Personnel Ltd", "office": "employment_agency", "source": "code-point_open;aerial imagery"}}, {"type": "node", "id": 12568357542, "lat": 53.5377865, "lon": -2.6573765, "tags": {"name": "A Star Recruitment", "office": "employment_agency"}}, {"type": "node", "id": 12656826618, "lat": 53.5024155, "lon": -2.186903, "tags": {"addr:city": "Manchester", "addr:housename": "Jobcentre Plus", "addr:housenumber": "1009", "addr:postcode": "M40 2EP", "addr:street": "Oldham Road", "brand": "Jobcentre Plus", "brand:wikidata": "Q6206793", "name": "Jobcentre Plus", "office": "employment_agency"}}, {"type": "way", "id": 33419363, "nodes": [380239771, 380239772, 380239773, 380239774, 380239775, 380239776, 380239778, 380239781, 380239771], "tags": {"addr:city": "Wigan", "addr:housenumber": "17-19", "addr:postcode": "WN4 9AB", "addr:street": "Gerard Street", "addr:suburb": "Ashton-in-Makerfield", "brand": "Jobcentre Plus", "brand:wikidata": "Q6206793", "brand:wikipedia": "en:Jobcentre Plus", "building": "yes", "name": "Jobcentre Plus", "office": "employment_agency", "phone": "+44 800 169 0190", "source": "survey"}}, {"type": "way", "id": 147464271, "nodes": [1606829602, 1606829630, 1606829530, 1606829679, 5235125792, 1606829614, 1606829522, 1606829602], "tags": {"brand": "Jobcentre Plus", "brand:wikidata": "Q6206793", "building": "yes", "name": "Jobcentre Plus", "office": "employment_agency", "ref:GB:uprn": "200002563739"}}, {"type": "way", "id": 166743459, "nodes": [1781892278, 1781892281, 1781892287, 1781892308, 1781892296, 1781892298, 1781892254, 1781892294, 1781892268, 1781892230, 1781892278], "tags": {"addr:housename": "Othen House", "addr:housenumber": "7", "addr:postcode": "M24 1BX", "addr:street": "Oldham Road", "brand": "Jobcentre Plus", "brand:wikidata": "Q6206793", "building": "public", "name": "Jobcentre Plus", "office": "employment_agency"}}, {"type": "way", "id": 168868284, "nodes": [1800523286, 1800523347, 1800523352, 1800523285, 1800523296, 1800523356, 1800523304, 1800523353, 1800523343, 1800523308, 1800523358, 1800523310, 1800523380, 1800523355, 1800523329, 1800523371, 1800523290, 1800523386, 1800523286], "tags": {"addr:city": "Salford", "addr:housenumber": "2", "addr:postcode": "M6 5PL", "addr:street": "Paddington Close", "brand": "Jobcentre Plus", "brand:wikidata": "Q6206793", "brand:wikipedia": "en:Jobcentre Plus", "building": "yes", "name": "Jobcentre Plus", "office": "employment_agency", "website": "https://www.gov.uk/contact-jobcentre-plus"}}, {"type": "way", "id": 187023977, "nodes": [1977783466, 1977783508, 1977783488, 1977783483, 9661320494, 1977783521, 1977783515, 1977783493, 1977783495, 1977783466], "tags": {"addr:city": "Manchester", "addr:housenumber": "96", "addr:postcode": "M14 5BJ", "addr:street": "Wilmslow Road", "brand": "Jobcentre Plus", "brand:wikidata": "Q6206793", "brand:wikipedia": "en:Jobcentre Plus", "building": "yes", "name": "Jobcentre Plus", "office": "employment_agency", "ref:GB:uprn": "10023053083"}}, {"type": "way", "id": 222491922, "nodes": [929104188, 2314601087, 2314601088, 2314601089, 929104188], "tags": {"brand": "Jobcentre Plus", "brand:wikidata": "Q6206793", "building": "yes", "name": "Jobcentre Plus", "office": "employment_agency", "ref:GB:uprn": "10004678460;10004673763"}}, {"type": "way", "id": 273025761, "nodes": [2779152152, 2779152155, 2779152156, 2779152159, 2779152162, 2779152165, 2779152168, 2779152171, 2779152174, 2779152177, 2779152180, 2779152183, 2779152186, 6169478758, 6169478760, 6169478759, 6169478757, 2779152152], "tags": {"addr:city": "Manchester", "addr:housenumber": "91", "addr:postcode": "M15 5JB", "addr:street": "Moss Lane East", "brand": "Jobcentre Plus", "brand:wikidata": "Q6206793", "brand:wikipedia": "en:Jobcentre Plus", "building": "yes", "name": "Jobcentre Plus", "office": "employment_agency"}}, {"type": "way", "id": 283522623, "nodes": [2873705245, 2873705246, 2873705247, 8168836294, 2873705248, 2873705245], "tags": {"addr:city": "Rochdale", "addr:housenumber": "2", "addr:postcode": "OL16 1LT", "addr:street": "Fleece Street", "brand": "Jobcentre Plus", "brand:wikidata": "Q6206793", "building": "yes", "building:levels": "3", "name": "Jobcentre Plus", "office": "employment_agency", "phone": "+44 845 604 3719", "ref:GB:uprn": "23061609"}}, {"type": "way", "id": 311395223, "nodes": [3170302545, 3170302546, 3170302547, 3170302548, 3170302545], "tags": {"brand": "Jobcentre Plus", "brand:wikidata": "Q6206793", "building": "yes", "name": "Jobcentre Plus", "office": "employment_agency"}}, {"type": "way", "id": 507289756, "nodes": [4968223061, 4968223062, 4968223063, 4968223064, 4968223061], "tags": {"brand": "Jobcentre Plus", "brand:wikidata": "Q6206793", "building": "yes", "name": "Jobcentre Plus", "office": "employment_agency", "ref:GB:uprn": "10003109333"}}, {"type": "way", "id": 566967935, "nodes": [5458797525, 5458797527, 5458797528, 5458797526, 5458797525], "tags": {"building": "yes", "name": "Landers Recruitment Ltd", "office": "employment_agency"}}, {"type": "way", "id": 588784808, "nodes": [5622961347, 5622961348, 5622961349, 5622961353, 5622961350, 5622961351, 5622961352, 5622961347], "tags": {"building": "yes", "name": "Labour 24/7", "office": "employment_agency", "ref:GB:uprn": "10070920429;100012560297;10070918868;10070918867"}}, {"type": "way", "id": 652294795, "nodes": [6115589601, 6115589602, 6115589603, 6115589604, 6115589601], "tags": {"brand": "Jobcentre Plus", "brand:wikidata": "Q6206793", "brand:wikipedia": "en:Jobcentre Plus", "building": "yes", "building:levels": "2", "name": "Jobcentre Plus", "office": "employment_agency"}}, {"type": "way", "id": 694690245, "nodes": [6524086792, 6524086798, 6524086799, 6524086797, 6524086793, 6524086792], "tags": {"addr:city": "Bolton", "addr:country": "GB", "addr:housenumber": "333", "addr:postcode": "BL5 3JY", "addr:street": "Manchester Road", "addr:suburb": "Westhoughton", "building": "yes", "name": "DH Recruitment", "office": "employment_agency"}}, {"type": "way", "id": 733389336, "nodes": [6868128024, 6868128025, 6868128026, 6868128027, 6868128028, 6868128029, 6868128030, 6868128031, 6868128032, 6868128033, 6868128034, 6868128035, 6868128024], "tags": {"addr:city": "Manchester", "addr:housename": "Danesmoor Court", "addr:housenumber": "95-97", "addr:postcode": "M20 3JQ", "addr:street": "Palatine Road", "brand": "Jobcentre Plus", "brand:wikidata": "Q6206793", "brand:wikipedia": "en:Jobcentre Plus", "building": "yes", "name": "Jobcentre Plus", "office": "employment_agency", "phone": "+44 800 169 0190", "ref:GB:uprn": "77107762", "website": "https://hsm.manchester.gov.uk/kb5/manchester/directory/service.page?id=7C6HCAVLAlE"}}, {"type": "way", "id": 911211615, "nodes": [8460965008, 8460965009, 8460965010, 8460965011, 8460965012, 8460965013, 8460965008], "tags": {"brand": "Jobcentre Plus", "brand:wikidata": "Q6206793", "brand:wikipedia": "en:Jobcentre Plus", "building": "yes", "name": "Jobcentre Plus", "office": "employment_agency", "ref:GB:uprn": "77001151"}}, {"type": "way", "id": 963608313, "nodes": [8913397251, 8913397252, 8913397253, 8913397254, 8913397255, 8913397256, 8913397257, 8913397258, 8913397259, 8913397260, 8913397251], "tags": {"addr:city": "Leigh", "addr:housename": "Roydale House", "addr:housenumber": "2-10", "addr:postcode": "WN7 1UT", "addr:street": "Windermere Road", "brand": "Jobcentre Plus", "brand:wikidata": "Q6206793", "building": "yes", "building:levels": "4", "name": "Jobcentre Plus", "office": "employment_agency", "phone": "+44800 169 0190", "source": "survey", "website": "https://www.wigan.gov.uk/Resident/Benefit-Grants/Welfare-Reform/UC-access-points/Leigh-Jobcentre-Plus.aspx"}}, {"type": "way", "id": 979873789, "nodes": [9064591091, 9064591092, 9064591093, 9064591094, 9064591091], "tags": {"addr:city": "Wigan", "addr:housenumber": "228", "addr:postcode": "WN4 8SH", "addr:street": "Bolton Road", "addr:suburb": "Ashton-in-Makerfield", "building": "yes", "name": "The HR Department", "office": "employment_agency", "source": "survey", "website": "https://www.hrdept.co.uk/wigan-st-helens/contact"}}]}