{"version": 0.6, "generator": "Overpass API 0.7.62.8 e802775f", "osm3s": {"timestamp_osm_base": "2025-11-28T18:01:14Z", "copyright": "The data included in this document is from www.openstreetmap.org. The data is made available under ODbL."}, "elements": [{"type": "node", "id": 929104188, "lat": 53.5123503, "lon": -2.3372912}, {"type": "node", "id": 1606829522, "lat": 53.5774701, "lon": -2.4325506}, {"type": "node", "id": 1606829530, "lat": 53.5773864, "lon": -2.4320949}, {"type": "node", "id": 1606829602, "lat": 53.577206, "lon": -2.4323647}, {"type": "node", "id": 1606829614, "lat": 53.5775303, "lon": -2.432308}, {"type": "node", "id": 1606829630, "lat": 53.5772898, "lon": -2.4320268}, {"type": "node", "id": 1606829679, "lat": 53.5773628, "lon": -2.4321901}, {"type": "node", "id": 2314601087, "lat": 53.5121127, "lon": -2.337502}, {"type": "node", "id": 2314601088, "lat": 53.5119944, "lon": -2.3371246}, {"type": "node", "id": 2314601089, "lat": 53.5122319, "lon": -2.3369139}, {"type": "node", "id": 4087804449, "lat": 53.6928404, "lon": -2.6966984, "tags": {"addr:city": "Leyland", "addr:housenumber": "71", "addr:postcode": "PR25 2LR", "addr:street": "Towngate", "craft": "photographer", "name": "Job Centre Plus;Matte Finish Studios", "office": "employment_agency", "phone": "+44 845 604 3719"}}, {"type": "node", "id": 4730679638, "lat": 53.5134032, "lon": -2.340698, "tags": {"name": "Start", "office": "employment_agency"}}, {"type": "node", "id": 4962852354, "lat": 53.5788061, "lon": -2.4265882, "tags": {"name": "The Best Connection", "office": "employment_agency"}}, {"type": "node", "id": 5234865423, "lat": 53.5816699, "lon": -2.4283296, "tags": {"name": "C & H Recruitment Agency", "office": "employment_agency"}}, {"type": "node", "id": 5234865446, "lat": 53.5803669, "lon": -2.4283997, "tags": {"name": "Jobwise", "office": "employment_agency"}}, {"type": "node", "id": 5235125792, "lat": 53.5775195, "lon": -2.4323003}, {"type": "node", "id": 5458797525, "lat": 53.6002282, "lon": -2.4326893}, {"type": "node", "id": 5458797526, "lat": 53.6002237, "lon": -2.4325468}, {"type": "node", "id": 5458797527, "lat": 53.6002992, "lon": -2.4326835}, {"type": "node", "id": 5458797528, "lat": 53.6002948, "lon": -2.4325411}, {"type": "node", "id": 5569290862, "lat": 53.6495179, "lon": -2.6334368}, {"type": "node", "id": 5569290869, "lat": 53.6495102, "lon": -2.6334156}, {"type": "node", "id": 5569290870, "lat": 53.6493726, "lon": -2.6334396}, {"type": "node", "id": 5569290871, "lat": 53.6494346, "lon": -2.6333297}, {"type": "node", "id": 5569290872, "lat": 53.6497334, "lon": -2.6340875}, {"type": "node", "id": 5569290873, "lat": 53.6496285, "lon": -2.6341894, "tags": {"entrance": "main"}}, {"type": "node", "id": 5622961347, "lat": 53.537817, "lon": -2.370531}, {"type": "node", "id": 5622961348, "lat": 53.5379407, "lon": -2.3704354}, {"type": "node", "id": 5622961349, "lat": 53.5379062, "lon": -2.3703084}, {"type": "node", "id": 5622961350, "lat": 53.5378138, "lon": -2.3703796}, {"type": "node", "id": 5622961351, "lat": 53.5378277, "lon": -2.3704307}, {"type": "node", "id": 5622961352, "lat": 53.5377962, "lon": -2.370455}, {"type": "node", "id": 5622961353, "lat": 53.5378249, "lon": -2.3703705}, {"type": "node", "id": 6019284112, "lat": 53.6518019, "lon": -2.6312012, "tags": {"addr:city": "Chorley", "addr:housenumber": "19", "addr:postcode": "PR7 2AL", "addr:street": "Halliwell Street", "name": "SureCare", "office": "employment_agency", "phone": "+441257220319"}}, {"type": "node", "id": 6524086792, "lat": 53.554818, "lon": -2.5099522}, {"type": "node", "id": 6524086793, "lat": 53.5549014, "lon": -2.5098889}, {"type": "node", "id": 6524086797, "lat": 53.5548187, "lon": -2.5098209}, {"type": "node", "id": 6524086798, "lat": 53.5547976, "lon": -2.5099009}, {"type": "node", "id": 6524086799, "lat": 53.5547975, "lon": -2.5098928}, {"type": "node", "id": 7086475069, "lat": 53.5497302, "lon": -2.77078, "tags": {"brand": "Jobcentre Plus", "brand:wikidata": "Q6206793", "brand:wikipedia": "en:Jobcentre Plus", "name": "Jobcentre Plus", "office": "employment_agency"}}, {"type": "node", "id": 8458215866, "lat": 53.5241642, "lon": -2.4003872, "tags": {"brand": "Jobcentre Plus", "brand:wikidata": "Q6206793", "brand:wikipedia": "en:Jobcentre Plus", "name": "Jobcentre Plus", "office": "employment_agency"}}, {"type": "node", "id": 8586555833, "lat": 53.5452622, "lon": -2.631074, "tags": {"addr:city": "Wigan", "addr:postcode": "WN1 1NN", "addr:street": "Library Street", "name": "Intro Recruitment", "office": "employment_agency"}}, {"type": "node", "id": 8980284712, "lat": 53.5434586, "lon": -2.6298219, "tags": {"addr:city": "Wigan", "addr:housename": "Brocol House", "addr:housenumber": "73", "addr:postcode": "WN1 1EA", "addr:street": "King Street", "brand": "Jobcentre Plus", "brand:wikidata": "Q6206793", "brand:wikipedia": "en:Jobcentre Plus", "name": "Jobcentre Plus", "office": "employment_agency"}}, {"type": "node", "id": 9428243479, "lat": 53.5767351, "lon": -2.4255283, "tags": {"name": "Clarity Homecare", "office": "employment_agency"}}, {"type": "node", "id": 12143121026, "lat": 53.5503444, "lon": -2.7735042, "tags": {"addr:city": "Skelmersdale", "addr:housename": "Staffline", "addr:housenumber": "Unit 139", "addr:postcode": "WN8 6LN", "addr:street": "The Concourse Shopping Centre", "level": "1", "name": "Staffline Skelmersdale", "office": "employment_agency"}}, {"type": "node", "id": 12568357542, "lat": 53.5377865, "lon": -2.6573765, "tags": {"name": "A Star Recruitment", "office": "employment_agency"}}, {"type": "way", "id": 147464271, "nodes": [1606829602, 1606829630, 1606829530, 1606829679, 5235125792, 1606829614, 1606829522, 1606829602], "tags": {"brand": "Jobcentre Plus", "brand:wikidata": "Q6206793", "building": "yes", "name": "Jobcentre Plus", "office": "employment_agency", "ref:GB:uprn": "200002563739"}}, {"type": "way", "id": 222491922, "nodes": [929104188, 2314601087, 2314601088, 2314601089, 929104188], "tags": {"brand": "Jobcentre Plus", "brand:wikidata": "Q6206793", "building": "yes", "name": "Jobcentre Plus", "office": "employment_agency", "ref:GB:uprn": "10004678460;10004673763"}}, {"type": "way", "id": 566967935, "nodes": [5458797525, 5458797527, 5458797528, 5458797526, 5458797525], "tags": {"building": "yes", "name": "Landers Recruitment Ltd", "office": "employment_agency"}}, {"type": "way", "id": 582286106, "nodes": [5569290873, 5569290872, 5569290862, 5569290869, 5569290871, 5569290870, 5569290873], "tags": {"addr:city": "Chorley", "addr:postcode": "PR7 2HB", "addr:street": "Hamilton Road", "brand": "Jobcentre Plus", "brand:wikidata": "Q6206793", "building": "yes", "name": "Jobcentre Plus", "office": "employment_agency"}}, {"type": "way", "id": 588784808, "nodes": [5622961347, 5622961348, 5622961349, 5622961353, 5622961350, 5622961351, 5622961352, 5622961347], "tags": {"building": "yes", "name": "Labour 24/7", "office": "employment_agency", "ref:GB:uprn": "10070920429;100012560297;10070918868;10070918867"}}, {"type": "way", "id": 694690245, "nodes": [6524086792, 6524086798, 6524086799, 6524086797, 6524086793, 6524086792], "tags": {"addr:city": "Bolton", "addr:country": "GB", "addr:housenumber": "333", "addr:postcode": "BL5 3JY", "addr:street": "Manchester Road", "addr:suburb": "Westhoughton", "building": "yes", "name": "DH Recruitment", "office": "employment_agency"}}]}